City_ID,City,Lat,Lng,Max Temp,Humidity,Cloudiness,Wind Speed,Country,Date
0,edinburgh of the seven seas,-37.0676,-12.3116,17.85,98,91,5.33,SH,1736355532
1,klyuchi,52.2667,79.1667,-18.58,95,62,4.28,RU,1736355587
2,leava,-14.3,-178.1667,28.27,81,100,12.67,WF,1736356045
3,male,4.1748,73.5089,27.3,79,99,6.12,MV,1736356046
4,queenstown,-31.8976,26.8753,19.91,54,54,8.85,ZA,1736356048
5,ilulissat,69.2167,-51.1,-8.75,79,100,2.1,GL,1736355501
6,newman,37.3138,-121.0208,6.69,77,100,1.21,US,1736356050
7,port-aux-francais,-49.35,70.2167,5.76,79,20,8.32,TF,1736355518
8,puerto natales,-51.7236,-72.4875,14.25,58,40,13.38,CL,1736355593
9,jamestown,42.097,-79.2353,-7.77,81,100,5.14,US,1736355588
10,tazacorte,28.629,-17.9293,20.54,87,20,1.34,ES,1736355801
11,tiksi,71.6872,128.8694,-23.6,94,49,6.26,RU,1736355572
12,keflavik,64.0049,-22.5624,-6.76,68,0,2.57,IS,1736355619
13,soio,-6.1349,12.3689,27.17,80,61,4.85,AO,1736355615
14,adamstown,-25.066,-130.1015,24.79,78,100,9.46,PN,1736355520
15,saint-tropez,43.2693,6.6398,14.4,85,25,4.88,FR,1736356060
16,aasiaat,68.7098,-52.8699,-6.46,94,100,4.97,GL,1736355932
17,chilliwack,49.1747,-121.9443,5.01,98,100,1.03,CA,1736355967
18,dunedin,-45.8742,170.5036,11.85,88,98,3.74,NZ,1736356063
19,acapulco de juarez,16.8634,-99.8901,26.2,58,0,1.78,MX,1736355605
20,albany,42.6001,-73.9662,-6.35,61,64,3.58,US,1736355568
21,blackmans bay,-43.0167,147.3167,16.07,69,92,1.34,AU,1736355552
22,grytviken,-54.2811,-36.5092,7.47,55,21,0.64,GS,1736355516
23,praya,14.9215,-23.5087,25.3,57,0,6.69,CV,1736356069
24,east london,-33.0153,27.9116,22.52,73,40,5.14,ZA,1736355618
25,susuman,62.7833,148.1667,-36.54,95,93,0.04,RU,1736355680
26,kenora,49.8167,-94.4337,-14.57,84,100,5.81,CA,1736356025
27,port elizabeth,-33.918,25.5701,23.16,80,0,7.72,ZA,1736355603
28,papatowai,-46.5619,169.4708,11.12,94,99,1.87,NZ,1736355526
29,saint-joseph,-21.3667,55.6167,27.21,85,27,4.15,RE,1736356075
30,margaret river,-33.95,115.0667,12.65,84,100,3.35,AU,1736355685
31,udachny,66.4167,112.4,-18.78,94,100,2.45,RU,1736355880
32,severo-yeniseyskiy,60.3725,93.0408,-10.21,96,100,1.77,RU,1736356078
33,zeya,53.75,127.2667,-19.47,87,100,2.11,RU,1736356080
34,sinfra,6.6167,-5.9167,35.27,18,33,1.82,CI,1736356081
35,qaqortoq,60.7167,-46.0333,-6.98,73,99,3.11,GL,1736355706
36,ishigaki,24.3448,124.1572,18.28,79,99,9.52,JP,1736356083
37,zaozersk,69.4005,32.4476,-18.07,98,82,1.67,RU,1736356084
38,puerto ayora,-0.7393,-90.3518,25.31,93,98,3.58,EC,1736355528
39,hermanus,-34.4187,19.2345,21.0,71,2,4.77,ZA,1736355496
40,yen vinh,18.6667,105.6667,19.38,87,88,1.71,VN,1736356087
41,bredasdorp,-34.5322,20.0403,21.51,60,13,5.77,ZA,1736355703
42,avarua,-21.2078,-159.775,28.03,89,75,6.69,CK,1736355717
43,kingston,17.997,-76.7936,30.53,55,20,2.57,JM,1736355493
44,isafjordur,66.0755,-23.124,-6.98,63,0,3.6,IS,1736355639
45,masuda,34.6667,131.85,6.73,70,91,10.07,JP,1736356093
46,port mathurin,-19.6833,63.4167,26.26,87,3,10.14,MU,1736355611
47,longyearbyen,78.2186,15.6401,-7.09,93,100,4.63,SJ,1736355652
48,tewkesbury,51.9945,-2.1568,2.29,89,75,2.57,GB,1736356096
49,santa maria,-29.6842,-53.8069,27.61,57,75,5.14,BR,1736355875
50,birnin kebbi,12.4539,4.1975,29.72,13,73,4.56,NG,1736356098
51,taco pozo,-25.6167,-63.2833,40.04,17,35,3.26,AR,1736356100
52,waitangi,-43.9535,-176.5597,12.12,98,100,1.34,NZ,1736356101
53,new norfolk,-42.7826,147.0587,16.07,76,100,1.16,AU,1736355730
54,ciudad bolivar,8.1222,-63.5497,34.46,35,31,3.8,VE,1736356104
55,ust-nera,64.5667,143.2,-33.56,97,100,1.89,RU,1736356105
56,sitka,57.0531,-135.33,6.94,87,100,2.06,US,1736356031
57,thompson,55.7435,-97.8558,-11.91,85,100,3.09,CA,1736355575
58,bonthe,7.5264,-12.505,29.86,64,53,6.11,SL,1736356109
59,invercargill,-46.4,168.35,11.68,94,72,0.98,NZ,1736355887
60,whitehorse,60.7161,-135.0538,-4.57,80,75,3.6,CA,1736355393
61,blackwater,-23.5833,148.8833,22.05,100,39,3.61,AU,1736356112
62,coquimbo,-29.9533,-71.3436,20.85,73,75,5.14,CL,1736355477
63,bethel,41.3712,-73.414,-2.12,44,0,4.92,US,1736355533
64,takoradi,4.8845,-1.7554,28.61,74,30,4.33,GH,1736356115
65,college,64.8569,-147.8028,-11.63,90,100,1.52,US,1736355597
66,yellowknife,62.456,-114.3525,-14.69,85,100,7.72,CA,1736355536
67,bilibino,68.0546,166.4372,-35.16,99,8,0.77,RU,1736355764
68,mount pearl,47.5166,-52.7813,1.19,94,100,4.63,CA,1736355766
69,carnarvon,-24.8667,113.6333,24.52,71,0,11.52,AU,1736355591
70,wailua homesteads,22.0669,-159.378,21.44,95,100,0.0,US,1736355609
71,luanda,-8.8368,13.2343,29.0,65,20,6.69,AO,1736355723
72,lorengau,-2.0226,147.2712,27.37,80,100,5.34,PG,1736356124
73,praia da vitoria,38.7333,-27.0667,18.14,88,75,11.18,PT,1736355787
74,acara,-1.9608,-48.1967,29.65,67,95,1.4,BR,1736356126
75,nishinoomote,30.7333,131.0,14.5,51,68,12.64,JP,1736356127
76,port hedland,-20.3167,118.5667,30.03,62,100,0.0,AU,1736356128
77,vodnyy,63.5046,53.4095,-15.1,95,100,4.66,RU,1736356130
78,pisco,-13.7,-76.2167,22.03,83,0,6.17,PE,1736355644
79,karratha,-20.7377,116.8463,30.65,54,95,2.43,AU,1736356132
80,nolinsk,57.5596,49.9363,1.49,100,100,5.82,RU,1736356133
81,afaahiti,-17.75,-149.2833,25.89,76,99,3.73,PF,1736356134
82,bloemfontein,-29.1211,26.214,27.27,11,1,3.13,ZA,1736356135
83,nantucket,41.2835,-70.0995,-2.14,55,3,14.93,US,1736355590
84,luganville,-15.5333,167.1667,25.76,87,91,1.62,VU,1736356137
85,vadso,70.0744,29.7487,-4.91,74,75,5.14,NO,1736356138
86,berezovyy,51.6667,135.7,-10.89,77,100,2.82,RU,1736356139
87,ushuaia,-54.8,-68.3,13.81,58,20,2.57,AR,1736355558
88,georgetown,5.4112,100.3354,28.96,74,20,2.06,MY,1736356142
89,nova vicosa,-17.8919,-39.3719,30.04,59,79,4.75,BR,1736355555
90,hamilton,39.1834,-84.5333,-3.56,73,100,4.63,US,1736355868
91,constantia,44.1833,28.65,9.38,77,21,3.52,RO,1736355755
92,iqaluit,63.7506,-68.5145,-20.15,76,100,12.86,CA,1736355655
93,fandriana,-20.2333,47.3833,19.7,77,62,1.25,MG,1736356147
94,saldanha,-33.0117,17.9442,19.51,76,0,6.04,ZA,1736356148
95,usinsk,65.9939,57.5281,-25.02,100,89,3.9,RU,1736356150
96,hereford,52.0568,-2.7148,1.86,92,100,2.34,GB,1736356104
97,punta arenas,-53.15,-70.9167,12.06,71,75,10.8,CL,1736356125
98,abadeh,31.1608,52.6506,2.47,46,93,2.22,IR,1736356153
99,medicine hat,50.0501,-110.6683,4.24,72,100,9.77,CA,1736355362
100,olonkinbyen,70.9221,-8.7187,-5.77,74,98,4.22,SJ,1736356156
101,at taj,24.2049,23.2857,15.72,34,100,2.25,LY,1736356158
102,luderitz,-26.6481,15.1594,20.41,63,0,12.21,NA,1736355823
103,north side,19.35,-81.2,25.04,77,75,5.66,KY,1736356160
104,stanley,54.868,-1.6985,-1.99,81,0,2.06,GB,1736355878
105,piacabucu,-10.4056,-36.4344,29.81,56,97,6.33,BR,1736356162
106,novo aripuana,-5.1206,-60.3797,25.71,86,99,1.49,BR,1736355998
107,kimbe,-5.5502,150.1429,25.33,89,81,0.77,PG,1736356165
108,anadyr,64.75,177.4833,-23.72,77,0,5.0,RU,1736356166
109,san mariano,7.5,126.0,22.64,96,88,0.81,PH,1736356167
110,gotsucho,35.0,132.2167,5.99,67,97,11.71,JP,1736356169
111,bemidji,47.4736,-94.8803,-12.19,77,75,4.12,US,1736356170
112,bondo,3.8146,23.6866,26.49,34,47,0.87,CD,1736356171
113,atafu village,-8.5421,-172.5159,28.11,68,100,7.42,TK,1736356061
114,hawaiian paradise park,19.5933,-154.9731,19.94,71,0,2.31,US,1736355590
115,mount gambier,-37.8333,140.7667,18.49,71,100,1.57,AU,1736355580
116,kununurra,-15.7667,128.7333,26.99,89,22,1.54,AU,1736356175
117,isangel,-19.55,169.2667,23.51,69,30,4.09,VU,1736355915
118,gadzhiyevo,69.2551,33.3362,-15.96,96,79,2.52,RU,1736355661
119,sinop,41.7711,34.8709,8.85,57,65,3.21,TR,1736356179
120,kavaratti,10.5669,72.642,27.15,68,56,1.45,IN,1736356180
121,alo,6.5486,4.2686,28.75,70,5,5.01,NG,1736356181
122,cuenca,-2.8833,-78.9833,18.08,77,91,1.46,EC,1736356182
123,egilsstadir,65.2653,-14.3948,-3.05,86,75,2.57,IS,1736355793
124,malkara,40.89,26.9011,11.73,88,40,4.75,TR,1736356184
125,ubari,26.5921,12.7805,13.88,43,0,4.08,LY,1736356185
126,hadibu,12.65,54.0333,23.53,66,31,4.73,YE,1736355608
127,marsh harbour,26.5412,-77.0636,19.81,60,80,4.62,BS,1736356188
128,kismayo,-0.3582,42.5454,25.2,86,89,6.26,SO,1736356189
129,kone,-21.0595,164.8658,23.26,73,87,1.38,NC,1736355713
130,papao,-17.75,-149.55,25.82,70,96,2.2,PF,1736355711
131,shevchenko,48.5,35.0,9.62,85,100,4.25,UA,1736356192
132,castillos,-34.1667,-53.8333,24.86,44,6,5.38,UY,1736356068
133,alofi,-19.0595,-169.9187,24.94,94,75,2.06,NU,1736355877
134,santiago de cao,-7.9589,-79.2392,20.07,83,20,5.66,PE,1736356195
135,turpan,42.9333,89.1667,-2.81,43,19,0.61,CN,1736355596
136,puerto aysen,-45.4,-72.7,17.23,75,82,3.44,CL,1736356197
137,halle (saale),51.5,12.0,2.11,81,0,2.06,DE,1736356199
138,senillosa,-39.0,-68.4167,34.79,10,0,6.79,AR,1736356200
139,canelones,-34.6444,-56.2886,27.01,44,20,4.63,UY,1736356202
140,grand falls-windsor,48.9332,-55.6649,1.39,90,100,1.08,CA,1736356203
141,yarkovo,57.4028,67.0786,-16.64,98,91,1.98,RU,1736356204
142,manta,-0.95,-80.7333,29.88,66,40,3.6,EC,1736356205
143,altai,46.3722,96.2583,-16.38,72,99,1.71,MN,1736356206
144,isetskoye,56.4858,65.3226,-11.34,96,100,2.66,RU,1736356208
145,turtas,58.9417,69.1325,-26.38,100,56,1.43,RU,1736356209
146,kodiak,57.79,-152.4072,0.73,86,0,0.0,US,1736356210
147,nuku'alofa,-21.1333,-175.2,22.19,88,75,2.06,TO,1736356211
148,palmer,42.1584,-72.3287,-2.7,41,20,11.83,US,1736356212
149,saipan,15.1355,145.701,25.92,89,40,4.63,MP,1736356157
150,kailua-kona,19.6406,-155.9956,20.31,81,0,0.89,US,1736356214
151,maceio,-9.6658,-35.7353,32.69,55,20,7.72,BR,1736355963
152,vorkuta,67.5,64.0,-28.39,100,100,1.49,RU,1736355738
153,touros,-5.1989,-35.4608,29.67,61,89,5.31,BR,1736355507
154,st. john's,47.5649,-52.7093,1.65,94,100,4.63,CA,1736355946
155,newark,40.7357,-74.1724,-1.14,43,100,10.29,US,1736355564
156,prado,-17.3411,-39.2208,28.87,65,70,4.81,BR,1736355949
157,karasu,41.071,30.7854,13.4,61,34,1.89,TR,1736356222
158,enewetak,11.3474,162.3373,27.03,83,14,8.92,MH,1736356033
159,port lincoln,-34.7333,135.8667,19.17,78,96,3.6,AU,1736356055
160,lihue,21.9789,-159.3672,21.77,94,100,1.54,US,1736356225
161,mbandaka,0.0487,18.2603,28.0,53,79,1.07,CD,1736355771
162,sao gabriel da cachoeira,-0.1303,-67.0892,34.55,44,98,0.85,BR,1736356228
163,porto novo,6.4965,2.6036,30.05,62,41,3.69,BJ,1736356229
164,chinchilla,-26.75,150.6333,19.45,89,55,0.45,AU,1736356230
165,pathein,16.7833,94.7333,20.41,88,0,2.89,MM,1736356231
166,tazovsky,67.4667,78.7,-29.31,100,35,1.02,RU,1736356232
167,zheleznogorsk-ilimskiy,56.5768,104.1217,-25.11,95,90,1.49,RU,1736356233
168,san antonio de pale,-1.4014,5.6325,27.52,76,76,3.3,GQ,1736356234
169,puerto baquerizo moreno,-0.9,-89.6,27.55,74,40,8.23,EC,1736356235
170,grand baie,-20.0182,57.5802,27.47,82,0,2.24,MU,1736356045
171,badger,64.8,-147.5333,-11.68,88,75,0.0,US,1736356238
172,harstad,68.799,16.5293,-4.36,73,100,3.58,NO,1736356239
173,talnakh,69.4865,88.3972,-19.71,98,100,2.57,RU,1736356240
174,inirida,3.8653,-67.9239,32.34,53,96,0.74,CO,1736355722
175,horsham,51.064,-0.3272,1.29,85,75,3.09,GB,1736356242
176,urangan,-25.3,152.9,24.5,71,35,4.49,AU,1736356243
177,khovd,48.0056,91.6419,-15.94,97,100,1.15,MN,1736355774
178,tarauaca,-8.1614,-70.7656,25.82,78,99,0.49,BR,1736356245
179,flying fish cove,-10.4217,105.6791,25.82,94,100,3.09,CX,1736355849
180,aykhal,66.0,111.5,-17.81,96,100,3.1,RU,1736356248
181,borba,-4.3878,-59.5939,31.65,58,98,1.31,BR,1736356249
182,ghat,24.9647,10.1728,14.26,30,0,4.14,LY,1736356250
183,uturoa,-16.7333,-151.4333,27.22,70,79,2.49,PF,1736355763
184,richards bay,-28.783,32.0377,23.1,86,100,5.22,ZA,1736356252
185,nouadhibou,20.931,-17.0347,25.99,25,12,4.12,MR,1736356253
186,vilyuchinsk,52.9306,158.4028,-5.85,81,100,3.13,RU,1736355945
187,ribeira grande,38.5167,-28.7,19.32,82,40,10.73,PT,1736355671
188,vangaindrano,-23.35,47.6,26.85,79,0,4.08,MG,1736356257
189,nar'yan-mar,67.6713,53.087,-22.87,100,72,3.01,RU,1736356258
190,yuzhno-kurilsk,44.0306,145.8556,-1.74,56,96,10.94,RU,1736356259
191,hithadhoo,-0.6,73.0833,27.45,75,34,1.49,MV,1736355746
192,seydi,39.4816,62.9137,-0.58,61,0,6.42,TM,1736356261
193,port alfred,-33.5906,26.891,22.32,81,2,0.89,ZA,1736356262
194,chulakkurgan,43.765,69.1814,-7.58,66,0,1.39,KZ,1736356264
195,utrik,11.2278,169.8474,27.05,80,9,9.73,MH,1736355836
196,callaway,30.153,-85.5699,7.89,59,91,4.02,US,1736356267
197,cloquet,46.7216,-92.4594,-11.19,72,100,3.09,US,1736356268
198,iskateley,67.6803,53.1512,-22.88,100,67,2.99,RU,1736356269
199,dzilam gonzalez,21.2833,-88.9333,24.54,56,39,3.66,MX,1736356270
200,labrador city,52.9463,-66.9114,-1.57,85,100,19.22,CA,1736356272
201,oranjemund,-28.55,16.4333,18.44,75,0,8.76,NA,1736355752
202,calama,-22.4667,-68.9333,24.27,23,0,5.14,CL,1736355610
203,orebro,59.2741,15.2066,-0.6,80,0,2.57,SE,1736356276
204,kollam,8.8833,76.6,26.3,71,21,1.12,IN,1736356277
205,val-d'or,48.1002,-77.7828,-17.21,93,100,5.49,CA,1736356124
206,aleksandrovsk-sakhalinskiy,50.8975,142.1561,-2.82,93,100,9.66,RU,1736356279
207,mejit,10.2753,170.8646,27.0,74,16,11.09,MH,1736356280
208,sakaiminato,35.55,133.2333,6.84,55,96,12.85,JP,1736356281
209,loudi,27.7344,111.9944,6.57,76,95,1.24,CN,1736356282
210,cam ranh,11.9214,109.1591,23.98,69,0,3.6,VN,1736356284
211,homer,59.6425,-151.5483,1.93,87,0,0.0,US,1736356285
212,zhongshu,24.5167,103.7667,7.13,96,80,1.97,CN,1736356286
213,westport,41.1415,-73.3579,-0.93,44,20,6.69,US,1736356069
214,nemuro,43.3236,145.575,-2.82,67,10,13.05,JP,1736355729
215,la passe,45.5549,-0.8967,13.29,75,100,9.73,FR,1736355802
216,katsuura,35.1333,140.3,6.53,66,35,8.25,JP,1736356290
217,uacu cungo,-11.3634,15.1208,20.54,85,79,1.81,AO,1736356291
218,namibe,-15.1961,12.1522,22.36,78,91,3.72,AO,1736355751
219,vrontados,38.4089,26.1328,13.92,77,40,2.57,GR,1736356294
220,lewiston orchards,46.3804,-116.9754,2.29,93,100,0.0,US,1736356295
221,fort mcmurray,56.7268,-111.381,0.71,79,66,3.91,CA,1736356296
222,dudinka,69.4058,86.1778,-22.59,98,100,4.18,RU,1736356297
223,santana,-0.0583,-51.1817,28.1,83,40,3.09,BR,1736356123
224,i-n-salah,27.1935,2.4607,17.3,22,0,4.13,DZ,1736356299
225,taltal,-25.4,-70.4833,21.58,73,17,4.51,CL,1736356300
226,kuloy,61.0305,42.4925,1.26,99,100,5.58,RU,1736356301
227,puerto quijarro,-17.7833,-57.7667,34.84,46,88,1.14,BO,1736356272
228,west island,-12.1568,96.8225,26.99,78,40,5.66,CC,1736356303
229,igarka,67.4667,86.5833,-27.23,100,100,1.79,RU,1736356305
230,shenjiamen,29.9576,122.298,7.33,61,16,8.0,CN,1736356306
231,manavalakurichi,8.1333,77.3,24.5,80,6,3.93,IN,1736356307
232,katsuren-haebaru,26.3369,127.8719,13.94,71,40,2.57,JP,1736356308
233,moreira sales,-24.0622,-53.0069,31.9,34,0,2.2,BR,1736356309
234,barreiras,-12.1528,-44.99,26.53,79,87,0.36,BR,1736356185
235,petropavlovsk-kamchatsky,53.0452,158.6483,-6.57,76,100,6.54,RU,1736356311
236,pachino,36.7186,15.0907,14.56,73,0,4.4,IT,1736356312
237,wabrzezno,53.2799,18.9477,0.74,85,55,6.12,PL,1736356313
238,casas grandes,30.3667,-107.95,0.02,34,98,4.31,MX,1736356314
239,harper,4.375,-7.7169,29.05,68,96,3.86,LR,1736356316
240,marka,1.7159,44.7717,24.55,89,78,7.33,SO,1736356318
241,patterson,37.4716,-121.1297,6.67,77,100,0.38,US,1736356319
242,chegdomyn,51.1167,133.0167,-21.55,98,100,0.43,RU,1736356320
243,copiapo,-27.3667,-70.3333,27.36,37,0,4.85,CL,1736356204
244,tsiombe,-25.3,45.4833,27.71,73,65,3.2,MG,1736356322
245,lethem,3.3803,-59.7968,35.64,34,38,5.39,GY,1736356323
246,fayroz koh,34.5195,65.2509,-11.61,87,29,2.54,AF,1736356325
247,taoudenni,22.6783,-3.9836,23.19,14,4,6.92,ML,1736356326
248,lompoc,34.6391,-120.4579,11.19,52,0,3.6,US,1736356297
249,saint-francois,46.4154,3.9054,14.67,60,0,2.57,FR,1736355917
250,bayganin,48.6947,55.8742,-3.78,87,99,7.36,KZ,1736356329
251,kerikeri,-35.2268,173.9474,12.17,87,39,2.23,NZ,1736356330
252,muynoq,43.7683,59.0214,-2.6,44,6,5.18,UZ,1736356331
253,weiser,44.251,-116.9693,0.73,90,100,1.09,US,1736356282
254,bonny,4.4522,7.1681,28.55,73,98,6.36,NG,1736356180
255,el calafate,-50.3408,-72.2768,13.52,48,28,9.43,AR,1736356175
256,ellsworth,44.5434,-68.4195,-5.42,57,100,5.66,US,1736356104
257,acarau,-2.8856,-40.12,30.81,59,98,7.44,BR,1736356337
258,iguape,-24.7081,-47.5553,25.9,72,13,4.95,BR,1736356215
259,vorgashor,67.5833,63.95,-28.5,100,100,1.81,RU,1736356339
260,crane,31.3974,-102.3501,0.55,24,86,5.03,US,1736356341
261,kristiansund,63.1115,7.732,-6.64,86,0,2.57,NO,1736356342
262,siocon,7.7061,122.1353,25.74,87,100,0.89,PH,1736356344
263,sovetskaya gavan',48.9723,140.2878,-5.59,89,100,8.86,RU,1736356345
264,amurzet,47.6967,131.0981,-18.22,86,100,3.86,RU,1736356346
265,benghazi,32.1167,20.0667,17.54,56,100,2.73,LY,1736356587
266,verkhnevilyuysk,63.4453,120.3167,-27.17,98,66,1.67,RU,1736356588
267,kavieng,-2.5744,150.7967,27.82,77,98,4.69,PG,1736356589
268,adel,31.1371,-83.4235,6.47,56,34,0.89,US,1736356590
269,korla,41.7597,86.1469,-6.43,75,100,1.05,CN,1736356592
270,drahichyn,52.1874,25.1597,0.2,99,100,3.08,BY,1736356422
271,mount isa,-20.7333,139.5,27.87,61,40,3.6,AU,1736356594
272,waingapu,-9.6567,120.2641,26.94,81,100,1.61,ID,1736356595
273,magadan,59.5667,150.8,-15.21,66,23,4.47,RU,1736356596
274,toliara,-23.35,43.6667,26.08,79,58,1.81,MG,1736356597
275,villa elisa,-25.3667,-57.6167,38.0,28,0,4.12,PY,1736356598
276,carbondale,37.7273,-89.2168,-4.95,80,100,2.57,US,1736356600
277,jalna,19.8333,75.8833,17.76,37,98,3.22,IN,1736356080
278,akureyri,65.6835,-18.0878,-9.04,86,75,2.57,IS,1736356603
279,arraial do cabo,-22.9661,-42.0278,28.92,74,40,5.66,BR,1736356434
280,ponta delgada,37.7333,-25.6667,18.4,88,40,7.2,PT,1736356605
281,huanren,41.2647,125.3667,-15.09,74,100,3.09,CN,1736356606
282,ola,59.5833,151.2833,-16.77,72,16,4.94,RU,1736356609
283,noumea,-22.2763,166.4572,22.41,75,31,3.91,NC,1736356610
284,fort st. john,56.2499,-120.8529,-7.5,94,73,1.96,CA,1736356436
285,hasaki,35.7333,140.8333,7.64,32,24,6.94,JP,1736356613
286,murghob,38.1702,73.9667,-26.4,91,7,2.81,TJ,1736356614
287,saint-pierre,-21.3393,55.4781,27.82,69,0,3.6,RE,1736356615
288,winnemucca,40.973,-117.7357,-2.97,80,0,0.0,US,1736356616
289,wenchang,30.904,118.4887,2.95,49,25,1.76,CN,1736356617
290,ambon,-3.6954,128.1814,28.26,95,99,1.85,ID,1736356619
291,harrismith,-28.2728,29.1295,16.94,93,63,5.3,ZA,1736356620
292,mahibadhoo,3.7833,72.9667,27.65,76,52,5.52,MV,1736356621
293,mata-utu,-13.2816,-176.1745,28.35,79,100,11.01,WF,1736356622
294,chilca,-12.5211,-76.7372,21.55,82,99,2.26,PE,1736356623
295,ilha de mocambique,-15.0342,40.7358,28.07,79,28,6.4,MZ,1736356624
296,walvis bay,-22.9575,14.5053,18.79,71,29,7.56,NA,1736356625
297,onsong,42.9572,129.9933,-16.78,45,13,5.13,KP,1736356626
298,cockburn town,21.4612,-71.1419,24.75,74,80,3.78,TC,1736356608
299,selfoss,63.9331,-20.9971,-12.2,76,0,4.26,IS,1736356069
300,tual,-5.6667,132.75,28.62,72,37,1.74,ID,1736356630
301,kupang,-10.1667,123.5833,26.39,87,100,1.45,ID,1736356631
302,benguela,-12.5763,13.4055,25.47,76,100,3.56,AO,1736356363
303,san luis de la loma,17.2706,-100.8939,29.16,51,0,1.88,MX,1736356633
304,antsiranana,-12.2787,49.2917,26.25,83,14,4.33,MG,1736356634
305,daru,-9.0763,143.2092,26.79,85,97,2.54,PG,1736356635
306,arawa,-6.2132,155.5367,25.91,91,95,1.91,PG,1736356637
307,makokou,0.5738,12.8642,27.51,61,97,1.49,GA,1736356638
308,altay,47.8667,88.1167,-12.1,83,100,2.47,CN,1736356639
309,vallenar,-28.5708,-70.7581,30.37,34,0,5.11,CL,1736356572
310,rongelap,11.1635,166.8941,27.58,77,35,10.74,MH,1736356095
311,shengli,37.4564,118.4856,-4.82,33,0,4.37,CN,1736356642
312,chifeng,42.2683,118.9636,-13.5,42,6,8.89,CN,1736356643
313,rizokarpaso,35.6,34.375,14.75,69,80,2.73,CY,1736356571
314,aigio,38.2486,22.0819,15.58,80,48,2.71,GR,1736356645
315,hohhot,40.8106,111.6522,-11.9,48,0,2.27,CN,1736356452
316,alice springs,-23.7,133.8833,25.75,36,66,2.06,AU,1736356648
317,las heras,-46.5419,-68.9359,25.64,24,14,15.38,AR,1736356466
318,paulden,34.8856,-112.4682,5.81,42,8,3.13,US,1736356650
319,ulladulla,-35.35,150.4667,17.34,80,100,2.98,AU,1736356651
320,mugia,43.1041,-9.2179,15.51,84,97,13.99,ES,1736356652
321,lata,40.1629,-8.3327,12.61,91,99,3.47,PT,1736356653
322,dubbo,-32.25,148.6167,16.07,82,0,4.12,AU,1736356654
323,mahdishahr,35.7108,53.3556,2.15,76,89,0.7,IR,1736356655
324,norilsk,69.3535,88.2027,-19.47,97,99,1.82,RU,1736356657
325,windsor,42.3001,-83.0165,-3.95,68,100,3.6,CA,1736356202
326,suva,-18.1416,178.4415,25.71,73,75,5.66,FJ,1736356659
327,leninskoye,41.7589,69.3864,-8.74,75,31,2.09,KZ,1736356660
328,sao jose da coroa grande,-8.8978,-35.1478,28.89,59,23,5.34,BR,1736356661
329,salekhard,66.53,66.6019,-30.36,99,6,0.41,RU,1736356662
330,khandyga,62.6667,135.6,-37.34,100,93,0.77,RU,1736356063
331,codrington,-38.2667,141.9667,18.21,74,100,1.84,AU,1736356664
332,bandar,2.05,99.75,22.31,99,100,1.04,ID,1736356666
333,hachinohe,40.5,141.5,-0.28,66,16,6.95,JP,1736356667
334,pacific grove,36.6177,-121.9166,12.58,68,0,2.06,US,1736356547
335,anlu,31.1661,112.5831,3.87,31,59,1.49,CN,1736356669
336,vila franca do campo,37.7167,-25.4333,18.23,89,97,6.49,PT,1736356670
337,luanco,43.6152,-5.7934,18.29,55,57,5.81,ES,1736356671
338,kalmunai,7.4167,81.8167,24.95,86,18,4.25,LK,1736356672
339,ulety,51.3572,112.4849,-24.0,98,12,0.96,RU,1736356371
340,nova xavantina,-14.6667,-52.35,27.53,81,100,0.65,BR,1736356674
341,isla del bosque,22.7333,-105.85,24.18,44,100,3.81,MX,1736356676
342,quellon,-43.1167,-73.6167,15.78,84,98,2.41,CL,1736356677
343,north bend,43.4065,-124.2243,7.95,87,100,0.0,US,1736356678
344,saposoa,-6.934,-76.7716,30.45,58,99,1.5,PE,1736356679
345,faya-largeau,17.9257,19.1043,22.28,20,80,4.39,TD,1736356680
346,tarawa,1.419,172.984,27.05,83,40,5.14,KI,1736356681
347,jayapura,-2.5333,140.7,22.66,89,54,1.41,ID,1736356682
348,jianguang,28.1938,115.7836,9.3,26,89,4.72,CN,1736356683
349,kinablangan,7.6947,126.5503,24.57,88,87,1.94,PH,1736356685
350,tadine,-21.55,167.8833,22.32,77,26,4.04,NC,1736356686
351,bayanaul,50.7889,75.6956,-20.56,94,18,4.07,KZ,1736356687
352,labasa,-16.4167,179.3833,24.21,96,100,1.82,FJ,1736356688
353,al mijlad,11.0333,27.7333,25.4,13,2,4.32,SD,1736356689
354,ziro,27.6333,93.8333,5.32,92,99,0.54,IN,1736356690
355,khash,28.2211,61.2158,4.85,45,100,3.4,IR,1736356691
356,recreo,-29.2818,-65.061,39.08,18,4,8.62,AR,1736356692
357,comodoro rivadavia,-45.8667,-67.5,29.92,23,0,9.26,AR,1736356624
358,heinola,61.2056,26.0381,-2.98,97,100,0.79,FI,1736356695
359,cabo san lucas,22.8909,-109.9124,22.51,64,100,8.23,MX,1736356606
360,ahtari,62.554,24.0619,-3.95,96,100,2.07,FI,1736356697
361,gandarbal,34.2333,74.7833,-1.83,62,0,2.02,IN,1736356698
362,vizzini,37.1609,14.7497,10.69,86,16,2.01,IT,1736356699
363,maridi,4.9158,29.4742,26.99,21,92,1.34,SS,1736356700
364,camacupa,-12.0167,17.4833,21.45,71,64,1.1,AO,1736356701
365,kuta,-8.7233,115.1723,27.97,94,40,1.54,ID,1736356702
366,ceerigaabo,10.6162,47.368,15.98,56,16,2.14,SO,1736356703
367,tralee,52.2704,-9.7026,-0.86,93,0,0.0,IE,1736356705
368,colares,38.7992,-9.4469,17.41,83,75,3.6,PT,1736356707
369,trairi,-3.2778,-39.2689,30.62,58,100,5.33,BR,1736356541
370,masterton,-40.9597,175.6575,6.0,96,3,1.85,NZ,1736356709
371,vilyuysk,63.7553,121.6247,-28.11,98,84,1.56,RU,1736356710
372,shingu,33.7333,135.9833,2.15,78,91,2.83,JP,1736356424
373,smithers,54.7804,-127.1743,-1.82,100,100,1.03,CA,1736356713
374,iquique,-20.2208,-70.1431,20.92,74,99,1.17,CL,1736356714
375,constitucion,-35.3333,-72.4167,20.44,58,12,5.29,CL,1736356707
376,gisborne,-38.6533,178.0042,14.44,81,94,7.76,NZ,1736356716
377,sinabang,2.4803,96.3801,26.28,79,100,1.51,ID,1736356717
378,rio grande,-32.035,-52.0986,23.31,58,0,5.53,BR,1736356718
379,fisterra,42.9049,-9.2629,14.72,82,76,14.45,ES,1736356719
380,napier,-39.4833,176.9167,12.38,77,61,1.79,NZ,1736356460
381,smara,26.7384,-11.6719,25.22,13,38,2.76,EH,1736356722
382,gardnerville ranchos,38.8882,-119.7413,-0.34,81,0,0.45,US,1736356723
383,san juan de miraflores,-12.1629,-76.9635,21.29,77,99,4.26,PE,1736356724
384,portland,45.5234,-122.6762,6.99,80,75,2.06,US,1736356545
385,pangkalpinang,-2.1333,106.1333,25.92,87,98,2.54,ID,1736356726
386,wagenfeld,52.55,8.5833,2.32,92,93,3.38,DE,1736356727
387,lodja,-3.4833,23.4333,24.35,78,56,0.97,CD,1736356728
388,fortaleza,-3.7227,-38.5247,31.07,62,40,5.66,BR,1736356573
389,alotau,-10.3069,150.4462,24.46,97,99,3.03,PG,1736356731
390,fortuna,40.5982,-124.1573,4.51,100,0,4.63,US,1736356732
391,kurkino,53.4257,38.6582,2.01,99,100,4.89,RU,1736356733
392,nikolayevsk-on-amure,53.1406,140.73,-10.48,96,100,3.01,RU,1736356734
393,biltine,14.5333,20.9167,24.83,15,5,4.1,TD,1736356735
394,san patricio,28.017,-97.5169,6.97,45,100,6.35,US,1736356736
395,luau,-10.7073,22.2247,20.26,77,68,1.64,AO,1736356737
396,dryden,49.7833,-92.7503,-13.84,72,100,5.14,CA,1736356738
397,panacan,9.2463,118.4082,25.99,90,99,5.16,PH,1736356727
398,ancud,-41.8697,-73.8203,14.39,96,100,4.59,CL,1736356361
399,sept-iles,50.2001,-66.3821,4.29,74,75,6.17,CA,1736356608
400,adrar,20.5022,-10.0711,24.98,11,26,5.8,MR,1736356744
401,weno,7.4515,151.8468,28.45,67,100,9.6,FM,1736356745
402,olyokminsk,60.3736,120.4264,-36.25,100,68,0.63,RU,1736356746
403,qingdao,36.0986,120.3719,-5.22,54,0,4.0,CN,1736356749
404,tukrah,32.5341,20.5791,16.42,59,91,2.83,LY,1736356750
405,posto fiscal rolim de moura,-13.0833,-62.2667,27.58,87,100,1.77,BR,1736356751
406,hoi an,15.8794,108.335,21.98,85,84,1.0,VN,1736356752
407,dolores,-36.3132,-57.6792,32.27,22,5,6.44,AR,1736356753
408,remire-montjoly,4.9167,-52.2667,30.02,62,75,5.14,GF,1736356754
409,arbelaez,4.2725,-74.4151,24.27,75,88,2.32,CO,1736356755
410,lapseki,40.3442,26.6856,14.52,84,88,3.55,TR,1736356756
411,lerwick,60.1545,-1.1494,3.37,74,100,6.75,GB,1736356635
412,naze,28.3667,129.4833,11.51,58,33,5.18,JP,1736356759
413,woolgoolga,-30.1106,153.2007,18.93,83,42,1.62,AU,1736356598
414,dereli,40.7378,38.4493,8.53,55,84,3.23,TR,1736356761
415,nova sintra,14.8667,-24.7167,23.79,72,0,8.97,CV,1736356762
416,barah,13.7,30.3667,22.19,17,47,4.18,SD,1736356763
417,sechura,-5.5569,-80.8222,27.75,54,78,2.86,PE,1736356764
418,lebu,-37.6167,-73.65,18.75,65,0,5.53,CL,1736356765
419,palikir - national government center,6.9248,158.1611,27.33,78,84,8.49,FM,1736356766
420,prince rupert,54.3161,-130.3201,7.05,99,100,3.09,CA,1736356768
421,thunder bay,48.4001,-89.3168,-12.42,63,76,0.83,CA,1736356291
422,tura,25.5198,90.2201,13.39,57,0,1.63,IN,1736356770
423,shakawe,-18.3667,21.85,19.96,95,100,5.33,BW,1736356771
424,pingliang,35.5392,106.6861,-3.82,30,100,1.61,CN,1736356772
425,igrim,63.1906,64.4162,-25.06,100,26,0.86,RU,1736356773
426,akwatia,6.0402,-0.8088,34.08,32,32,2.16,GH,1736356490
427,taro,-8.3862,115.28,20.49,96,100,0.07,ID,1736357247
428,levuka,50.1834,-105.4011,-0.15,80,75,7.2,CA,1736357248
429,poyarkovo,49.6,128.6833,-15.49,89,100,4.75,RU,1736357249
430,strathalbyn,-35.2667,138.9,21.4,72,97,1.77,AU,1736357250
431,franceville,-1.6333,13.5836,26.25,83,75,1.16,GA,1736357251
432,polyarnyy,69.1989,33.4478,-16.02,94,80,2.62,RU,1736357252
433,chernyshevskiy,63.0128,112.4714,-29.39,99,98,1.48,RU,1736357255
434,panjakent,39.4952,67.6093,-0.75,79,12,0.99,TJ,1736357256
435,saint joseph,39.7686,-94.8466,-9.32,78,0,1.54,US,1736357085
436,hirara,24.8,125.2833,17.92,72,100,7.72,JP,1736357258
437,campbell river,50.0163,-125.2446,5.81,100,75,1.54,CA,1736357124
438,kolpashevo,58.3131,82.9089,-10.25,92,100,5.79,RU,1736357260
439,halifax,44.6453,-63.5724,-0.84,71,100,8.75,CA,1736356627
440,noamundi,22.15,85.5333,13.77,32,14,0.76,IN,1736357262
441,kiunga,-6.1219,141.2906,24.08,99,100,0.78,PG,1736357263
442,cartaya,37.2811,-7.1507,16.77,100,45,4.02,ES,1736357266
443,mthatha,-31.5889,28.7844,19.31,72,75,5.14,ZA,1736357267
444,cidreira,-30.1811,-50.2056,23.32,64,88,5.48,BR,1736357268
445,belmonte,-15.8631,-38.8828,27.64,69,99,4.14,BR,1736357270
446,bouca,6.5105,18.2733,29.09,15,98,1.54,CF,1736357271
447,cole harbour,44.6724,-63.4751,-1.69,71,100,8.75,CA,1736357273
448,swidwin,53.7746,15.7767,0.75,72,97,7.08,PL,1736357274
449,aykol,38.1751,77.2132,-0.48,47,83,1.0,CN,1736357275
450,koh kong,11.6175,102.9806,22.55,71,74,2.14,KH,1736357276
451,markovo,57.3206,107.0881,-27.66,99,18,1.06,RU,1736357278
452,margate,51.3813,1.3862,3.72,77,100,1.34,GB,1736357279
453,guanica,17.9716,-66.908,29.99,53,82,2.99,PR,1736357280
454,eagle point,42.4726,-122.8028,1.01,93,100,0.0,US,1736357282
455,komotini,41.1228,25.3964,11.7,92,100,1.35,GR,1736357283
456,novyy rogachik,48.6768,44.0608,3.5,90,94,6.14,RU,1736357284
457,khatima,28.9167,79.9667,12.19,63,1,1.75,IN,1736357285
458,broken hill,-31.95,141.4333,25.18,31,74,5.11,AU,1736357286
459,esmeralda,21.8525,-78.1169,24.73,52,48,3.98,CU,1736357287
460,fort drum,44.0584,-75.7619,-11.4,72,100,4.12,US,1736357288
461,kitimat,54.0524,-128.6534,4.14,100,100,0.96,CA,1736357052
462,puerto deseado,-47.7503,-65.8938,26.26,27,42,14.34,AR,1736357291
463,minas de marcona,-15.2119,-75.1103,21.99,58,100,6.02,PE,1736357292
464,yelizovo,53.1873,158.3805,-5.92,58,0,5.0,RU,1736357293
465,uzgen,40.7699,73.3007,-8.61,76,50,3.0,KG,1736357294
466,chadron,42.8294,-102.9999,-5.58,62,0,3.09,US,1736357295
467,ashland,40.8167,-82.2665,-4.43,90,98,5.28,US,1736357296
468,fale old settlement,-9.3852,-171.2468,28.46,66,100,7.42,TK,1736357297
469,ladario,-19.0047,-57.6017,33.16,52,20,2.57,BR,1736357299
470,bengkulu,-3.8004,102.2655,24.99,89,94,2.53,ID,1736357300
471,venkatagiri,13.9667,79.5833,20.35,86,0,0.36,IN,1736357301
472,haiku-pauwela,20.9219,-156.3051,21.25,79,0,6.69,US,1736357302
473,miguel ahumada,30.6167,-106.5167,1.92,24,70,9.79,MX,1736357303
474,nazyvayevsk,55.5698,71.3529,-15.56,92,66,3.61,RU,1736357304
475,vila velha,-20.3297,-40.2925,24.97,94,75,3.6,BR,1736357147
476,bubaque,11.2833,-15.8333,25.59,71,73,5.29,GW,1736357306
477,garissa,-0.4536,39.6401,31.66,33,80,2.44,KE,1736356758
478,shahdad kot,27.8477,67.9055,16.54,11,99,1.28,PK,1736357309
479,muang phonsavan,19.45,103.2167,9.68,99,14,1.35,LA,1736357310
480,fort bragg,35.139,-79.006,3.23,45,0,2.24,US,1736357311
481,mermoz boabab,14.7065,-17.4758,24.88,57,0,6.17,SN,1736357312
482,bam,29.106,58.357,11.46,24,98,2.66,IR,1736357313
483,ljusdal,61.8288,16.0913,-0.42,97,100,4.78,SE,1736357314
484,zhaotong,27.3167,103.7167,-2.27,97,99,2.67,CN,1736357315
485,luchegorsk,46.4764,134.2569,-19.02,97,100,1.67,RU,1736357317
486,nagqu,31.5,92.0,-11.2,24,72,1.83,CN,1736357319
487,banda aceh,5.5577,95.3222,26.13,81,85,1.43,ID,1736357320
488,bodo,67.28,14.405,-5.98,63,0,10.29,NO,1736357321
489,songea,-10.6833,35.65,22.64,78,75,1.54,TZ,1736357322
490,kapuskasing,49.4169,-82.4331,-22.95,64,0,3.6,CA,1736357323
491,santiago de chuco,-8.15,-78.1833,15.69,62,89,1.6,PE,1736357324
492,ta`u,-14.2336,-169.5144,28.4,77,100,10.95,AS,1736357325
493,fernan-nunez,37.6884,-4.7247,13.39,78,12,5.31,ES,1736357326
494,puerto madero,14.7208,-92.4215,31.11,55,0,0.0,MX,1736357327
495,midvagur,62.0511,-7.1939,2.46,64,75,9.77,FO,1736357329
496,iwanai,42.9744,140.5089,-3.62,82,100,8.9,JP,1736357330
497,olinda,-8.0089,-34.8553,29.85,62,20,5.14,BR,1736357331
498,lajere,11.9797,11.4443,25.72,17,25,4.48,NG,1736357332
499,nizhneudinsk,54.9076,99.0276,-12.61,95,100,1.13,RU,1736357333
500,kemalpasa,38.4262,27.4173,12.32,85,55,1.87,TR,1736357335
501,lionel town,17.8101,-77.2406,29.31,58,100,2.26,JM,1736357336
502,bardai,11.65,7.2333,25.88,16,46,4.14,NG,1736357338
503,tshabong,-26.05,22.45,31.08,6,70,5.89,BW,1736357339
504,kirakira,-10.4544,161.9205,26.47,88,56,2.21,SB,1736357340
505,nova olinda do norte,-3.8881,-59.0942,28.77,81,100,1.27,BR,1736357341
506,zonguldak,41.25,31.8333,9.81,64,10,1.91,TR,1736357343
507,white river,-25.3318,31.0117,21.53,88,20,2.06,ZA,1736357344
508,beyneu,45.3167,55.2,-1.83,70,7,8.2,KZ,1736357345
509,sao vicente,-23.9631,-46.3919,24.99,26,52,2.24,BR,1736357346
510,moundou,8.5667,16.0833,28.79,15,78,2.28,TD,1736357347
511,manaure,11.7751,-72.4445,29.53,62,35,3.92,CO,1736357348
512,nevel',56.0209,29.9284,0.01,92,99,4.45,RU,1736357349
513,mumbwa,-14.9783,27.0619,20.07,88,93,0.83,ZM,1736357350
514,tchintabaraden,15.8969,5.7985,26.05,14,100,4.09,NE,1736357352
515,junin de los andes,-39.9504,-71.0694,28.32,26,0,2.24,AR,1736357353
516,devonport,-41.1667,146.35,13.01,90,100,3.26,AU,1736357354
517,qarazhal,48.0078,70.7903,-21.03,93,9,2.2,KZ,1736357355
518,lockhart,28.6194,-81.4426,13.97,53,0,3.6,US,1736357356
519,port-saint-louis-du-rhone,43.3833,4.8,14.13,77,75,5.66,FR,1736357357
520,almazan,41.4865,-2.5309,6.86,82,98,8.08,ES,1736357358
521,tofol,5.3248,163.0078,28.3,71,26,6.15,FM,1736357359
522,nyandoma,61.669,40.1991,0.35,98,100,5.0,RU,1736357360
523,sisimiut,66.9395,-53.6735,-7.93,82,96,4.19,GL,1736357362
524,regina,50.4501,-104.6178,-0.94,78,75,6.71,CA,1736357098
525,port macquarie,-31.4333,152.9167,18.37,87,95,0.45,AU,1736357364
526,chos malal,-37.3781,-70.2709,32.23,9,0,2.33,AR,1736357366
527,san andres,12.5847,-81.7006,29.01,79,20,7.2,CO,1736357280
528,ad dawadimi,24.5077,44.3924,8.64,60,2,3.87,SA,1736357368
529,port sudan,19.6175,37.2164,23.74,60,49,6.68,SD,1736357369
530,alesund,62.4723,6.1549,0.42,80,75,3.6,NO,1736357370
531,hailar,49.2,119.7,-25.15,95,66,2.42,CN,1736357372
532,forster,-32.1667,152.5167,17.43,100,100,9.56,AU,1736357373
533,murzuq,25.9155,13.9184,14.61,40,0,4.63,LY,1736357374
534,garoowe,8.4054,48.4845,22.06,65,49,8.72,SO,1736357375
535,okhotsk,59.3833,143.3,-19.21,76,82,4.47,RU,1736357376
536,manavadar,21.5,70.1333,17.5,23,84,3.17,IN,1736357377
537,galliano,29.4422,-90.2992,6.49,51,98,4.45,US,1736357378
538,chonchi,-42.6128,-73.8092,17.29,89,100,1.8,CL,1736357381
539,rawson,-43.3002,-65.1023,31.16,35,0,5.14,AR,1736357382
540,enriquillo,17.9,-71.2333,27.34,69,23,3.73,DO,1736357383
541,bontang,0.1333,117.5,26.02,85,100,1.1,ID,1736357384
542,homeland park,34.4707,-82.6707,4.57,54,0,2.06,US,1736357385
543,pudasjarvi,65.3833,26.9167,-8.92,89,100,3.57,FI,1736357386
544,chibougamau,49.9168,-74.3659,-12.21,79,100,4.63,CA,1736357387
545,hengchun,22.0042,120.7439,19.88,76,96,5.31,TW,1736357389
546,yerofey pavlovich,53.9667,121.9667,-25.14,96,70,1.64,RU,1736357390
547,doral,25.8195,-80.3553,20.01,67,20,4.12,US,1736357391
548,jiran,24.3167,74.8833,13.22,31,12,2.05,IN,1736357392
549,santa luzia,-19.7697,-43.8514,29.19,62,40,2.57,BR,1736357394
550,baikonur,45.6167,63.3167,-8.36,73,4,3.59,KZ,1736357395
551,colonia,50.9333,6.95,4.98,83,40,2.06,DE,1736357396
552,nadarzyn,52.0944,20.8078,1.27,86,20,2.57,PL,1736357398
553,inari,68.906,27.0288,-21.63,100,100,1.19,FI,1736357314
554,teknaf,20.8624,92.3058,17.46,78,0,3.73,BD,1736357400
555,bandarbeyla,9.4942,50.8122,24.3,71,12,9.2,SO,1736357116
556,orchard mesa,39.043,-108.5523,0.03,54,0,4.12,US,1736357402
557,la mira tumbiscatio,18.6833,-102.2833,29.83,33,40,1.7,MX,1736357403
558,freetown,8.484,-13.2299,29.84,74,56,3.6,SL,1736357351
559,puyang chengguanzhen,35.7028,115.0053,-4.46,26,0,1.6,CN,1736357405
560,zomba,-15.386,35.3188,19.77,90,100,1.22,MW,1736357406
561,leh,34.1667,77.5833,-21.6,58,0,3.03,IN,1736357408
562,manhattan,40.7834,-73.9662,-1.1,42,20,12.86,US,1736357383
563,masingbi,8.7833,-11.95,34.8,17,53,1.04,SL,1736357410
564,filipstad,59.7124,14.1683,-9.43,100,96,1.18,SE,1736357115
565,mhangura,-16.8939,30.1683,19.03,94,97,0.28,ZW,1736357412
566,erechim,-27.6342,-52.2739,27.94,43,34,2.65,BR,1736357164
567,sao joao da barra,-21.6403,-41.0511,28.05,79,40,5.45,BR,1736357226
568,esperanza,19.5847,-70.9849,23.5,91,73,2.88,DO,1736357576
569,quang ngai,15.1167,108.8,19.43,93,83,2.06,VN,1736357578
570,yuriria,20.2,-101.15,21.39,39,52,2.2,MX,1736357579
